[
  {
    "id": "id_sit_18",
    "name": "Alun-Alun Situbondo Barat",
    "type": "MJPEG",
    "kabupaten": "Situbondo",
    "provinsi": "Jawa Timur",
    "url": "https://cctvlive.situbondokab.go.id/zm/cgi-bin/nph-zms?mode=jpeg&monitor=18&scale=100&maxfps=10&username=user&password=user",
    "thumbUrl": "https://cctvlive.situbondokab.go.id/zm/cgi-bin/nph-zms?mode=single&monitor=18&scale=100&username=user&password=user",
    "lat": "-7.706887",
    "lng": "114.004629"
  },
  {
    "id": "id_sit_5",
    "name": "Dam Pintu Lima",
    "type": "MJPEG",
    "kabupaten": "Situbondo",
    "provinsi": "Jawa Timur",
    "url": "https://cctvlive.situbondokab.go.id/zm/cgi-bin/nph-zms?mode=jpeg&monitor=5&scale=100&maxfps=10&username=user&password=user",
    "thumbUrl": "https://cctvlive.situbondokab.go.id/zm/cgi-bin/nph-zms?mode=single&monitor=5&scale=100&username=user&password=user",
    "lat": "-7.720848",
    "lng": "114.013706"
  },
  {
    "id": "id_sit_22",
    "name": "Depan Kominfo",
    "type": "MJPEG",
    "kabupaten": "Situbondo",
    "provinsi": "Jawa Timur",
    "url": "https://cctvlive.situbondokab.go.id/zm/cgi-bin/nph-zms?mode=jpeg&monitor=22&scale=100&maxfps=10&username=user&password=user",
    "thumbUrl": "https://cctvlive.situbondokab.go.id/zm/cgi-bin/nph-zms?mode=single&monitor=22&scale=100&username=user&password=user",
    "lat": "-7.707203",
    "lng": "114.001054"
  },
  {
    "id": "id_sit_31",
    "name": "Gerbang Desa Wonorejo",
    "type": "MJPEG",
    "kabupaten": "Situbondo",
    "provinsi": "Jawa Timur",
    "url": "https://cctvlive.situbondokab.go.id/zm/cgi-bin/nph-zms?mode=jpeg&monitor=31&scale=100&maxfps=10&username=user&password=user",
    "thumbUrl": "https://cctvlive.situbondokab.go.id/zm/cgi-bin/nph-zms?mode=single&monitor=31&scale=100&username=user&password=user",
    "lat": "-7.921646",
    "lng": "114.387516"
  },
  {
    "id": "id_sit_1",
    "name": "PDAM Alun-Alun Situbondo",
    "type": "MJPEG",
    "kabupaten": "Situbondo",
    "provinsi": "Jawa Timur",
    "url": "https://cctvlive.situbondokab.go.id/zm/cgi-bin/nph-zms?mode=jpeg&monitor=1&scale=100&maxfps=10&username=user&password=user",
    "thumbUrl": "https://cctvlive.situbondokab.go.id/zm/cgi-bin/nph-zms?mode=single&monitor=1&scale=100&username=user&password=user",
    "lat": "-7.707486881633588",
    "lng": "114.00542086419726"
  },
  {
    "id": "id_sit_19",
    "name": "PDAM Selatan Alun-Alun Situbondo",
    "type": "MJPEG",
    "kabupaten": "Situbondo",
    "provinsi": "Jawa Timur",
    "url": "https://cctvlive.situbondokab.go.id/zm/cgi-bin/nph-zms?mode=jpeg&monitor=19&scale=100&maxfps=10&username=user&password=user",
    "thumbUrl": "https://cctvlive.situbondokab.go.id/zm/cgi-bin/nph-zms?mode=single&monitor=19&scale=100&username=user&password=user",
    "lat": "-7.707628",
    "lng": "114.005018"
  },
  {
    "id": "id_sit_2",
    "name": "Paseban Alun-Alun Situbondo",
    "type": "MJPEG",
    "kabupaten": "Situbondo",
    "provinsi": "Jawa Timur",
    "url": "https://cctvlive.situbondokab.go.id/zm/cgi-bin/nph-zms?mode=jpeg&monitor=2&scale=100&maxfps=10&username=user&password=user",
    "thumbUrl": "https://cctvlive.situbondokab.go.id/zm/cgi-bin/nph-zms?mode=single&monitor=2&scale=100&username=user&password=user",
    "lat": "-7.707589213740972",
    "lng": "114.00499707516983"
  },
  {
    "id": "id_sit_40",
    "name": "Simpang AB Barat",
    "type": "MJPEG",
    "kabupaten": "Situbondo",
    "provinsi": "Jawa Timur",
    "url": "https://cctvlive.situbondokab.go.id/zm/cgi-bin/nph-zms?mode=jpeg&monitor=40&scale=100&maxfps=10&username=user&password=user",
    "thumbUrl": "https://cctvlive.situbondokab.go.id/zm/cgi-bin/nph-zms?mode=single&monitor=40&scale=100&username=user&password=user",
    "lat": "-7.707380",
    "lng": "114.006330"
  },
  {
    "id": "id_sit_39",
    "name": "Simpang AB Timur",
    "type": "MJPEG",
    "kabupaten": "Situbondo",
    "provinsi": "Jawa Timur",
    "url": "https://cctvlive.situbondokab.go.id/zm/cgi-bin/nph-zms?mode=jpeg&monitor=39&scale=100&maxfps=10&username=user&password=user",
    "thumbUrl": "https://cctvlive.situbondokab.go.id/zm/cgi-bin/nph-zms?mode=single&monitor=39&scale=100&username=user&password=user",
    "lat": "-7.707388",
    "lng": "114.006161"
  },
  {
    "id": "id_sit_15",
    "name": "Simpang Alun-Alun Situbondo",
    "type": "MJPEG",
    "kabupaten": "Situbondo",
    "provinsi": "Jawa Timur",
    "url": "https://cctvlive.situbondokab.go.id/zm/cgi-bin/nph-zms?mode=jpeg&monitor=15&scale=100&maxfps=10&username=user&password=user",
    "thumbUrl": "https://cctvlive.situbondokab.go.id/zm/cgi-bin/nph-zms?mode=single&monitor=15&scale=100&username=user&password=user",
    "lat": "-7.705959",
    "lng": "114.005857"
  },
  {
    "id": "id_sit_38",
    "name": "Simpang Besuki",
    "type": "MJPEG",
    "kabupaten": "Situbondo",
    "provinsi": "Jawa Timur",
    "url": "https://cctvlive.situbondokab.go.id/zm/cgi-bin/nph-zms?mode=jpeg&monitor=38&scale=100&maxfps=10&username=user&password=user",
    "thumbUrl": "https://cctvlive.situbondokab.go.id/zm/cgi-bin/nph-zms?mode=single&monitor=38&scale=100&username=user&password=user",
    "lat": "-7.734984",
    "lng": "113.691134"
  },
  {
    "id": "id_sit_13",
    "name": "Simpang Bhayangkara",
    "type": "MJPEG",
    "kabupaten": "Situbondo",
    "provinsi": "Jawa Timur",
    "url": "https://cctvlive.situbondokab.go.id/zm/cgi-bin/nph-zms?mode=jpeg&monitor=13&scale=100&maxfps=10&username=user&password=user",
    "thumbUrl": "https://cctvlive.situbondokab.go.id/zm/cgi-bin/nph-zms?mode=single&monitor=13&scale=100&username=user&password=user",
    "lat": "-7.707613",
    "lng": "113.999244"
  },
  {
    "id": "id_sit_12",
    "name": "Simpang Buduan",
    "type": "MJPEG",
    "kabupaten": "Situbondo",
    "provinsi": "Jawa Timur",
    "url": "https://cctvlive.situbondokab.go.id/zm/cgi-bin/nph-zms?mode=jpeg&monitor=12&scale=100&maxfps=10&username=user&password=user",
    "thumbUrl": "https://cctvlive.situbondokab.go.id/zm/cgi-bin/nph-zms?mode=single&monitor=12&scale=100&username=user&password=user",
    "lat": "-7.733501",
    "lng": "113.727250"
  },
  {
    "id": "id_sit_3",
    "name": "Simpang Capore",
    "type": "MJPEG",
    "kabupaten": "Situbondo",
    "provinsi": "Jawa Timur",
    "url": "https://cctvlive.situbondokab.go.id/zm/cgi-bin/nph-zms?mode=jpeg&monitor=3&scale=100&maxfps=10&username=user&password=user",
    "thumbUrl": "https://cctvlive.situbondokab.go.id/zm/cgi-bin/nph-zms?mode=single&monitor=3&scale=100&username=user&password=user",
    "lat": "-7.714490",
    "lng": "114.015247"
  },
  {
    "id": "id_sit_10",
    "name": "Simpang Kapongan",
    "type": "MJPEG",
    "kabupaten": "Situbondo",
    "provinsi": "Jawa Timur",
    "url": "https://cctvlive.situbondokab.go.id/zm/cgi-bin/nph-zms?mode=jpeg&monitor=10&scale=100&maxfps=10&username=user&password=user",
    "thumbUrl": "https://cctvlive.situbondokab.go.id/zm/cgi-bin/nph-zms?mode=single&monitor=10&scale=100&username=user&password=user",
    "lat": "-7.690676",
    "lng": "114.063471"
  },
  {
    "id": "id_sit_6",
    "name": "Simpang MAN",
    "type": "MJPEG",
    "kabupaten": "Situbondo",
    "provinsi": "Jawa Timur",
    "url": "https://cctvlive.situbondokab.go.id/zm/cgi-bin/nph-zms?mode=jpeg&monitor=6&scale=100&maxfps=10&username=user&password=user",
    "thumbUrl": "https://cctvlive.situbondokab.go.id/zm/cgi-bin/nph-zms?mode=single&monitor=6&scale=100&username=user&password=user",
    "lat": "-7.7080849",
    "lng": "114.0149137"
  },
  {
    "id": "id_sit_35",
    "name": "Simpang SMEA Barat",
    "type": "MJPEG",
    "kabupaten": "Situbondo",
    "provinsi": "Jawa Timur",
    "url": "https://cctvlive.situbondokab.go.id/zm/cgi-bin/nph-zms?mode=jpeg&monitor=35&scale=100&maxfps=10&username=user&password=user",
    "thumbUrl": "https://cctvlive.situbondokab.go.id/zm/cgi-bin/nph-zms?mode=single&monitor=35&scale=100&username=user&password=user",
    "lat": "-7.703066",
    "lng": "114.014865"
  },
  {
    "id": "id_sit_37",
    "name": "Simpang SMEA Selatan",
    "type": "MJPEG",
    "kabupaten": "Situbondo",
    "provinsi": "Jawa Timur",
    "url": "https://cctvlive.situbondokab.go.id/zm/cgi-bin/nph-zms?mode=jpeg&monitor=37&scale=100&maxfps=10&username=user&password=user",
    "thumbUrl": "https://cctvlive.situbondokab.go.id/zm/cgi-bin/nph-zms?mode=single&monitor=37&scale=100&username=user&password=user",
    "lat": "-7.703135",
    "lng": "114.014742"
  },
  {
    "id": "id_sit_34",
    "name": "Simpang SMEA Timur",
    "type": "MJPEG",
    "kabupaten": "Situbondo",
    "provinsi": "Jawa Timur",
    "url": "https://cctvlive.situbondokab.go.id/zm/cgi-bin/nph-zms?mode=jpeg&monitor=34&scale=100&maxfps=10&username=user&password=user",
    "thumbUrl": "https://cctvlive.situbondokab.go.id/zm/cgi-bin/nph-zms?mode=single&monitor=34&scale=100&username=user&password=user",
    "lat": "-7.702844",
    "lng": "114.014929"
  },
  {
    "id": "id_sit_11",
    "name": "Simpang Tiga DPRD",
    "type": "MJPEG",
    "kabupaten": "Situbondo",
    "provinsi": "Jawa Timur",
    "url": "https://cctvlive.situbondokab.go.id/zm/cgi-bin/nph-zms?mode=jpeg&monitor=11&scale=100&maxfps=10&username=user&password=user",
    "thumbUrl": "https://cctvlive.situbondokab.go.id/zm/cgi-bin/nph-zms?mode=single&monitor=11&scale=100&username=user&password=user",
    "lat": "-7.702533",
    "lng": "113.995816"
  },
  {
    "id": "id_sit_7",
    "name": "Simpang Tiga Jalan Tembus",
    "type": "MJPEG",
    "kabupaten": "Situbondo",
    "provinsi": "Jawa Timur",
    "url": "https://cctvlive.situbondokab.go.id/zm/cgi-bin/nph-zms?mode=jpeg&monitor=7&scale=100&maxfps=10&username=user&password=user",
    "thumbUrl": "https://cctvlive.situbondokab.go.id/zm/cgi-bin/nph-zms?mode=single&monitor=7&scale=100&username=user&password=user",
    "lat": "-7.728960",
    "lng": "114.011826"
  },
  {
    "id": "id_sit_9",
    "name": "Simpang Tiga PG Panji",
    "type": "MJPEG",
    "kabupaten": "Situbondo",
    "provinsi": "Jawa Timur",
    "url": "https://cctvlive.situbondokab.go.id/zm/cgi-bin/nph-zms?mode=jpeg&monitor=9&scale=100&maxfps=10&username=user&password=user",
    "thumbUrl": "https://cctvlive.situbondokab.go.id/zm/cgi-bin/nph-zms?mode=single&monitor=9&scale=100&username=user&password=user",
    "lat": "-7.697118",
    "lng": "114.032427"
  },
  {
    "id": "id_sit_30",
    "name": "Simpang Tiga Panarukan",
    "type": "MJPEG",
    "kabupaten": "Situbondo",
    "provinsi": "Jawa Timur",
    "url": "https://cctvlive.situbondokab.go.id/zm/cgi-bin/nph-zms?mode=jpeg&monitor=30&scale=100&maxfps=10&username=user&password=user",
    "thumbUrl": "https://cctvlive.situbondokab.go.id/zm/cgi-bin/nph-zms?mode=single&monitor=30&scale=100&username=user&password=user",
    "lat": "-7.697565",
    "lng": "113.937114"
  },
  {
    "id": "id_sit_32",
    "name": "Simpang Tiga Ps. Asembagus",
    "type": "MJPEG",
    "kabupaten": "Situbondo",
    "provinsi": "Jawa Timur",
    "url": "https://cctvlive.situbondokab.go.id/zm/cgi-bin/nph-zms?mode=jpeg&monitor=32&scale=100&maxfps=10&username=user&password=user",
    "thumbUrl": "https://cctvlive.situbondokab.go.id/zm/cgi-bin/nph-zms?mode=single&monitor=32&scale=100&username=user&password=user",
    "lat": "-7.749702",
    "lng": "114.218027"
  },
  {
    "id": "id_sit_33",
    "name": "Simpang Tiga Ps. Kampung",
    "type": "MJPEG",
    "kabupaten": "Situbondo",
    "provinsi": "Jawa Timur",
    "url": "https://cctvlive.situbondokab.go.id/zm/cgi-bin/nph-zms?mode=jpeg&monitor=33&scale=100&maxfps=10&username=user&password=user",
    "thumbUrl": "https://cctvlive.situbondokab.go.id/zm/cgi-bin/nph-zms?mode=single&monitor=33&scale=100&username=user&password=user",
    "lat": "-7.750345",
    "lng": "114.208835"
  },
  {
    "id": "id_sit_8",
    "name": "Simpang Tiga Wringinanom",
    "type": "MJPEG",
    "kabupaten": "Situbondo",
    "provinsi": "Jawa Timur",
    "url": "https://cctvlive.situbondokab.go.id/zm/cgi-bin/nph-zms?mode=jpeg&monitor=8&scale=100&maxfps=10&username=user&password=user",
    "thumbUrl": "https://cctvlive.situbondokab.go.id/zm/cgi-bin/nph-zms?mode=single&monitor=8&scale=100&username=user&password=user",
    "lat": "-7.708554",
    "lng": "113.972731"
  },
  {
    "id": "id_sit_14",
    "name": "Simpang Tugu Jam",
    "type": "MJPEG",
    "kabupaten": "Situbondo",
    "provinsi": "Jawa Timur",
    "url": "https://cctvlive.situbondokab.go.id/zm/cgi-bin/nph-zms?mode=jpeg&monitor=14&scale=100&maxfps=10&username=user&password=user",
    "thumbUrl": "https://cctvlive.situbondokab.go.id/zm/cgi-bin/nph-zms?mode=single&monitor=14&scale=100&username=user&password=user",
    "lat": "-7.708261",
    "lng": "113.996628"
  },
  {
    "id": "id_sit_28",
    "name": "Taman Alun-Alun Situbondo",
    "type": "MJPEG",
    "kabupaten": "Situbondo",
    "provinsi": "Jawa Timur",
    "url": "https://cctvlive.situbondokab.go.id/zm/cgi-bin/nph-zms?mode=jpeg&monitor=28&scale=100&maxfps=10&username=user&password=user",
    "thumbUrl": "https://cctvlive.situbondokab.go.id/zm/cgi-bin/nph-zms?mode=single&monitor=28&scale=100&username=user&password=user",
    "lat": "-7.706637",
    "lng": "114.006056"
  }
]